[
  {"name":"Bin_1_CentralStation","lat":59.8586,"lng":17.6389,"fill_level":72},
  {"name":"Bin_2_FyrisPark","lat":59.8621,"lng":17.6194,"fill_level":45},
  {"name":"Bin_3_Polacksbacken","lat":59.8173,"lng":17.6547,"fill_level":88},
  {"name":"Bin_4_Ekeby","lat":59.8531,"lng":17.6067,"fill_level":30},
  {"name":"Bin_5_Kungsgatan","lat":59.8574,"lng":17.641,"fill_level":93},
  {"name":"Bin_6_Sveaplan","lat":59.8599,"lng":17.6342,"fill_level":60},
  {"name":"Bin_7_StEriks","lat":59.8545,"lng":17.6301,"fill_level":52},
  {"name":"Bin_8_Linnégatan","lat":59.8508,"lng":17.6350,"fill_level":77},
  {"name":"Bin_9_Västgötagatan","lat":59.8492,"lng":17.6402,"fill_level":41},
  {"name":"Bin_10_NorraÅgatan","lat":59.8520,"lng":17.6425,"fill_level":85},
  {"name":"Bin_11_SödraÅgatan","lat":59.8551,"lng":17.6438,"fill_level":49},
  {"name":"Bin_12_Fyrisån","lat":59.8563,"lng":17.6502,"fill_level":66},
  {"name":"Bin_13_Kvarngatan","lat":59.8576,"lng":17.6521,"fill_level":39},
  {"name":"Bin_14_ÖstraÅgatan","lat":59.8588,"lng":17.6544,"fill_level":91},
  {"name":"Bin_15_VästgötaPark","lat":59.8601,"lng":17.6568,"fill_level":34},
  {"name":"Bin_16_Drottninggatan","lat":59.8613,"lng":17.6593,"fill_level":58},
  {"name":"Bin_17_NorraStationsgatan","lat":59.8625,"lng":17.6617,"fill_level":79},
  {"name":"Bin_18_SödraStationsgatan","lat":59.8637,"lng":17.6641,"fill_level":43},
  {"name":"Bin_19_Universitetsgatan","lat":59.8649,"lng":17.6665,"fill_level":95},
  {"name":"Bin_20_Katthagen","lat":59.8661,"lng":17.6689,"fill_level":55},
  {"name":"Bin_21_Rosendal","lat":59.8673,"lng":17.6713,"fill_level":63},
  {"name":"Bin_22_Kungsängsgatan","lat":59.8685,"lng":17.6737,"fill_level":81},
  {"name":"Bin_23_ÖstraÅkersvägen","lat":59.8697,"lng":17.6761,"fill_level":47},
  {"name":"Bin_24_Vasaparken","lat":59.8709,"lng":17.6785,"fill_level":36},
  {"name":"Bin_25_SanktPersgatan","lat":59.8721,"lng":17.6809,"fill_level":70},
  {"name":"Bin_26_Sveaparken","lat":59.8733,"lng":17.6833,"fill_level":82},
  {"name":"Bin_27_Kvarngärdet","lat":59.8745,"lng":17.6857,"fill_level":29},
  {"name":"Bin_28_Flogstavägen","lat":59.8757,"lng":17.6881,"fill_level":94},
  {"name":"Bin_29_Österängen","lat":59.8769,"lng":17.6905,"fill_level":51},
  {"name":"Bin_30_Luthagen","lat":59.8781,"lng":17.6929,"fill_level":67}
]
