[
  {"name":"Bin_1_CentralStation","lat":59.8586,"lng":17.6389,"fill_level":72},
  {"name":"Bin_2_FyrisPark","lat":59.8612,"lng":17.6251,"fill_level":45},
  {"name":"Bin_3_Polacksbacken","lat":59.8169,"lng":17.6513,"fill_level":88},
  {"name":"Bin_4_Ekeby","lat":59.8540,"lng":17.6078,"fill_level":30},
  {"name":"Bin_5_Kungsgatan","lat":59.8579,"lng":17.6417,"fill_level":93},
  {"name":"Bin_6_Sveaplan","lat":59.8605,"lng":17.6365,"fill_level":60},
  {"name":"Bin_7_StEriks","lat":59.8538,"lng":17.6324,"fill_level":52},
  {"name":"Bin_8_Linnégatan","lat":59.8501,"lng":17.6372,"fill_level":77},
  {"name":"Bin_9_Västgötagatan","lat":59.8495,"lng":17.6421,"fill_level":41},
  {"name":"Bin_10_NorraÅgatan","lat":59.8518,"lng":17.6447,"fill_level":85},
  {"name":"Bin_11_SödraÅgatan","lat":59.8555,"lng":17.6460,"fill_level":49},
  {"name":"Bin_12_Fyrisån","lat":59.8568,"lng":17.6507,"fill_level":66},
  {"name":"Bin_13_Kvarngatan","lat":59.8573,"lng":17.6535,"fill_level":39},
  {"name":"Bin_14_ÖstraÅgatan","lat":59.8591,"lng":17.6558,"fill_level":91},
  {"name":"Bin_15_VästgötaPark","lat":59.8607,"lng":17.6581,"fill_level":34},
  {"name":"Bin_16_Drottninggatan","lat":59.8615,"lng":17.6604,"fill_level":58},
  {"name":"Bin_17_NorraStationsgatan","lat":59.8628,"lng":17.6629,"fill_level":79},
  {"name":"Bin_18_SödraStationsgatan","lat":59.8632,"lng":17.6647,"fill_level":43},
  {"name":"Bin_19_Universitetsgatan","lat":59.8646,"lng":17.6670,"fill_level":95},
  {"name":"Bin_20_Katthagen","lat":59.8660,"lng":17.6694,"fill_level":55},
  {"name":"Bin_21_Rosendal","lat":59.8672,"lng":17.6711,"fill_level":63},
  {"name":"Bin_22_Kungsängsgatan","lat":59.8685,"lng":17.6740,"fill_level":81},
  {"name":"Bin_23_ÖstraÅkersvägen","lat":59.8698,"lng":17.6763,"fill_level":47},
  {"name":"Bin_24_Vasaparken","lat":59.8703,"lng":17.6789,"fill_level":36},
  {"name":"Bin_25_SanktPersgatan","lat":59.8720,"lng":17.6812,"fill_level":70},
  {"name":"Bin_26_Sveaparken","lat":59.8731,"lng":17.6835,"fill_level":82},
  {"name":"Bin_27_Kvarngärdet","lat":59.8742,"lng":17.6856,"fill_level":29},
  {"name":"Bin_28_Flogstavägen","lat":59.8755,"lng":17.6884,"fill_level":94},
  {"name":"Bin_29_Österängen","lat":59.8764,"lng":17.6909,"fill_level":51},
  {"name":"Bin_30_Luthagen","lat":59.8780,"lng":17.6925,"fill_level":67}
]
